[
  {
    "id": "1",
    "name": "صيدلية المعتمد بن عباد",
    "start": "2022-08-09",
    "end": "2022-09-10",
    "address": "حي السلام, الراية سابقا, الشارع المقابل لحي النهضة الريطب سابقا, قرب الطريق المؤدية لمرافق حي النهضة",
    "phone": "0524646218",
    "lat": 32.242622,
    "long": -8.542309
  },
  {
    "id": "2",
    "name": "صيدلية إيناس",
    "start": "2022-05-16",
    "end": "2022-05-29",
    "address": "حي السلام الراية سابقا شارع دمشق الرقم 111 بقلب الدرب في الوسط مقابل متجر سي علال",
    "phone": "0524645524",
    "lat": 32.242588,
    "long": -8.540431
  },
  {
    "id": "3",
    "name": "صيدلية البلدية",
    "start": "2022-05-23",
    "end": "2022-05-29",
    "address": "الحي الحسني الحد سابقا قرب سينما الحمراء بجانب المعهد",
    "phone": "0524645265",
    "lat": 32.244373,
    "long": -8.534692
  },
  {
    "id": "4",
    "name": "صيدلية زينب",
    "start": "2022-05-30",
    "end": "2022-06-05",
    "address": "الرقم 342 حي أجنديس قرب حمام و مسجد الفوارة",
    "phone": "0524645909",
    "lat": 32.260171,
    "long": -8.523516
  },
  {
    "id": "5",
    "name": "صيدلية الشفشاوني",
    "start": "2022-06-06",
    "end": "2022-06-12`",
    "address": "حي التقدم الرمل الرقم 1 زنقة بغداد بجانب مدرسة الشفشاوني",
    "phone": "0524649508",
    "lat": 32.25535791969979,
    "long": -8.533690798286568
  },
  {
    "id": "6",
    "name": "صيدلية أجنديس",
    "start": "2022-06-13",
    "end": "2022-06-19",
    "address": "تجزئة أجنديس الرقم 34 قرب دار الشباب مباشرة عند مدخل حي الأمل الفوارة",
    "phone": "0524646491",
    "lat": 32.2587578,
    "long": -8.5267355
  },
  {
    "id": "7",
    "name": "صيدلية الخيرية",
    "start": "2022-06-20",
    "end": "2022-06-26",
    "address": "الحي الحسني الرقم 25 مقابل ديور الصفرين ",
    "phone": "0524648216",
    "lat": 32.24479459183171,
    "long": -8.531639178827618
  },
  {
    "id": "8",
    "name": "صيدلية المستشفى",
    "start": "2022-08-01",
    "end": "2022-09-03",
    "address": "حي المنار مقابل مستشفى للا حسناء الجبورات",
    "phone": "0524646108",
    "lat": 32.23757494044491,
    "long": -8.513119337624154
  },
  {
    "id": "9",
    "name": "صيدلية النور",
    "start": "2022-08-08",
    "end": "2022-08-14",
    "address": "حي الغدير رقم 314 في وسط الدرب مقابل الشارع الرئيسي",
    "phone": "0524649312",
    "lat": 32.237123649129586,
    "long": -8.532688173474519
  },
  {
    "id": "10",
    "name": "صيدلية الزيتونة",
    "start": "2022-07-11",
    "end": "2022-07-17",
    "address": "حي السمارة الزنقة 37 الرقم 65 العرصة سابقا",
    "phone": "0524660704",
    "lat": 32.249091718837235,
    "long": -8.539405130673929
  },
  {
    "id": "11",
    "name": "صيدلية زايد",
    "start": "2022-07-18",
    "end": "2022-07-24",
    "address": "الحي المحمدي ديور النصارى شارع محمد الخامس الذي به حديقة السبع",
    "phone": "0524645212",
    "lat": 32.248571689884194,
    "long": -8.523493990106017
  },
  {
    "id": "12",
    "name": "صيدلية الفتح",
    "start": "2022-07-25",
    "end": "2022-07-31",
    "address": "حي الفتح صعودا عبر الشارع الذي يفصل تجزئة الفتح و التكوين المهني ",
    "phone": "0524646060",
    "lat": 32.239670832364006,
    "long": -8.530982906526056
  },
  {
    "id": "13",
    "name": "صيدلية لويس جونتي",
    "start": "2022-08-01",
    "end": "2022-08-07",
    "address": "الحي المحمدي ديور النصارى الرقم 14 مكرر زنقة سبتة مقابل مدرسة الراضي السلاوي",
    "phone": "0524660950",
    "lat": 32.24626878251566,
    "long": -8.528243202858993
  },
  {
    "id": "14",
    "name": "صيدلية الريطب",
    "start": "2022-07-04",
    "end": "2022-07-10",
    "address": "حي النهضة الريطب سابقا الزنقة 7 الرقم 30 قرب جلسة سي عزوز مقابل حي الزلاقة و حمام الرايس",
    "phone": "0617564964",
    "lat": 32.24294900588569,
    "long": -8.546338258434101
  },
  {
    "id": "15",
    "name": "صيدلية غانم",
    "start": "2022-08-15",
    "end": "2022-08-21",
    "address": "حي الغدير بالقرب من الشاطو عن يمين البلوك و الثانوية التقنية جابر بن حيان",
    "phone": "0636191872",
    "lat": 32.235702,
    "long": -8.529674
  },
  {
    "id": "16",
    "name": "صيدلية أحمر",
    "start": "2022-08-22",
    "end": "2022-08-28",
    "address": " الحي الحسني قرب المسجد العتيق الحد سابقا طريق الباعة المتجولين",
    "phone": "0524649112",
    "lat": 32.24244096711211,
    "long": -8.536360169744876
  },
  {
    "id": "17",
    "name": "صيدلية كشكاط",
    "start": "2022-08-29",
    "end": "2022-09-04",
    "address": "الحي الحسني بجوار مختبر التصوير كشكاط مقابل مقهى لاباش",
    "phone": "0524649270",
    "lat": 32.245670688612,
    "long": -8.533310471233209
  },
  {
    "id": "18",
    "name": "صيدلية نجمي",
    "start": "2022-09-05",
    "end": "2022-09-11",
    "address": "حي التقدم الرمل سابقا الشارع الرئيسي قرب قنطرة القطار الخراجة",
    "phone": "0524649089",
    "lat": 32.25139880767119,
    "long": -8.533829012936332
  },
  {
    "id": "19",
    "name": "صيدلية اليوسفية",
    "start": "2022-09-12",
    "end": "2022-09-18",
    "address": "الحي الحسني قرب محطة القطار بجانب المخبزة و البنك الشعبي مقابل الحديقة",
    "phone": "0524649548",
    "lat": 32.24751888463325,
    "long": -8.533134676196482
  },
  {
    "id": "20",
    "name": "صيدلية العصرية",
    "start": "2022-09-19",
    "end": "2022-09-25",
    "address": "الحي الحسني الرقم 9 شارع العيون بجانب دروكري الكبوري",
    "phone": "0524649669",
    "lat": 32.24153870706777,
    "long": -8.53721030638066
  },
  {
    "id": "21",
    "name": "صيدلية السعادة",
    "start": "2022-09-26",
    "end": "2022-10-02",
    "address": "حي السعادة فلاج مسعودة الرقم 6 على الشارع مقابل ملعب كرة القدم",
    "phone": "0524646704",
    "lat": 32.23617545310907,
    "long": -8.535919910697604
  },
  {
    "id": "22",
    "name": "صيدلية الرحمة",
    "start": "2022-10-03",
    "end": "2022-10-09",
    "address": "حي التقدم الرمل سابقا في المارشي وسط سويقة قرب المكتبة و المسجد",
    "phone": "0524645277",
    "lat": 32.2537569,
    "long": -8.5324174
  },
  {
    "id": "23",
    "name": "صيدلية الدكالي",
    "start": "2022-10-10",
    "end": "2022-10-16",
    "address": "في اخر حي التقدم الرمل قرب دار الشباب و بائعي الفخار",
    "phone": "0524645922",
    "lat": 32.257076,
    "long": -8.529627
  },
  {
    "id": "24",
    "name": "صيدلية السوق",
    "start": "2022-10-17",
    "end": "2022-10-23",
    "address": "التجزئة الاقتصادية حي ليراك الرقم 31 قرب مسجد الفردوس و الدكتور عقيل",
    "phone": "0524645060",
    "lat": 32.2399923553722,
    "long": -8.53810579301602
  },
  {
    "id": "25",
    "name": "صيدلية القدس",
    "start": "2022-10-24",
    "end": "2022-10-30",
    "address": "حي القدس لبيطة الرقم 230 مكرر قرب مقر المقاطعة سابقا و المستوصف الطبي الساحة المقابلة لحي التقدم",
    "phone": "0524647546",
    "lat": 32.2538504017649,
    "long": -8.53595052603286
  },
  {
    "id": "26",
    "name": "صيدلية الداخلة",
    "start": "2022-10-31",
    "end": "2022-11-06",
    "address": "حي الداخلة كاريان النخلة على الشارع الرئيسي",
    "phone": "0524648206",
    "lat": 32.23309522814961,
    "long": -8.537016318374723
  },
  {
    "id": "27",
    "name": "صيدلية بغداد",
    "start": "2022-11-07",
    "end": "2022-11-13",
    "address": "حي الغدير الرقم 22 مقابل حي السعادة فلاج مسعودة أمامها ساحة فارغة",
    "phone": "0524649474",
    "lat": 32.234924,
    "long": -8.534444
  },
  {
    "id": "28",
    "name": "صيدلية ابن سينا",
    "start": "2022-11-14",
    "end": "2022-11-20",
    "address": "حي الزلاقة كاريان بومهدي الرقم 1 زنقة عبدة مقابل و قرب القنطرة الكبيرة",
    "phone": "0524648294",
    "lat": 32.24019432375885,
    "long": -8.542185859510221
  }
]